<!-- ESA ESTRACK core network. The 35 m deep-space antennas (New Norcia, Cebreros,
     Malargue) use a 10 deg mask, the near-Earth stations 5 deg. -->
<GroundSegment>
    <Network>
      <NumStation>7</NumStation>
      <NetworkName>ESTRACK</NetworkName>
    <GroundStation>
      <Type>Downlink</Type>
      <ConstellationID>1</ConstellationID>
      <GroundStationID>1</GroundStationID>
      <GroundStationName>Kourou</GroundStationName>
      <Latitude>5.2514</Latitude>
      <Longitude>-52.8047</Longitude>
      <Height>14</Height>
      <ReceiverConstellation>1</ReceiverConstellation>
      <ElevationMask>5</ElevationMask>
    </GroundStation>
    <GroundStation>
      <Type>Downlink</Type>
      <ConstellationID>1</ConstellationID>
      <GroundStationID>2</GroundStationID>
      <GroundStationName>NewNorcia</GroundStationName>
      <Latitude>-31.0482</Latitude>
      <Longitude>116.1915</Longitude>
      <Height>252</Height>
      <ReceiverConstellation>1</ReceiverConstellation>
      <ElevationMask>10</ElevationMask>
    </GroundStation>
    <GroundStation>
      <Type>Downlink</Type>
      <ConstellationID>1</ConstellationID>
      <GroundStationID>3</GroundStationID>
      <GroundStationName>Cebreros</GroundStationName>
      <Latitude>40.4526</Latitude>
      <Longitude>-4.3676</Longitude>
      <Height>794</Height>
      <ReceiverConstellation>1</ReceiverConstellation>
      <ElevationMask>10</ElevationMask>
    </GroundStation>
    <GroundStation>
      <Type>Downlink</Type>
      <ConstellationID>1</ConstellationID>
      <GroundStationID>4</GroundStationID>
      <GroundStationName>Malargue</GroundStationName>
      <Latitude>-35.7760</Latitude>
      <Longitude>-69.3982</Longitude>
      <Height>1550</Height>
      <ReceiverConstellation>1</ReceiverConstellation>
      <ElevationMask>10</ElevationMask>
    </GroundStation>
    <GroundStation>
      <Type>Downlink</Type>
      <ConstellationID>1</ConstellationID>
      <GroundStationID>5</GroundStationID>
      <GroundStationName>Kiruna</GroundStationName>
      <Latitude>67.8571</Latitude>
      <Longitude>20.9643</Longitude>
      <Height>402</Height>
      <ReceiverConstellation>1</ReceiverConstellation>
      <ElevationMask>5</ElevationMask>
    </GroundStation>
    <GroundStation>
      <Type>Downlink</Type>
      <ConstellationID>1</ConstellationID>
      <GroundStationID>6</GroundStationID>
      <GroundStationName>Redu</GroundStationName>
      <Latitude>50.0020</Latitude>
      <Longitude>5.1452</Longitude>
      <Height>385</Height>
      <ReceiverConstellation>1</ReceiverConstellation>
      <ElevationMask>5</ElevationMask>
    </GroundStation>
    <GroundStation>
      <Type>Downlink</Type>
      <ConstellationID>1</ConstellationID>
      <GroundStationID>7</GroundStationID>
      <GroundStationName>SantaMaria</GroundStationName>
      <Latitude>36.9969</Latitude>
      <Longitude>-25.1358</Longitude>
      <Height>276</Height>
      <ReceiverConstellation>1</ReceiverConstellation>
      <ElevationMask>5</ElevationMask>
    </GroundStation>
    </Network>
</GroundSegment>
